{
  "ski_resorts": [
    {
      "name": "Vail",
      "state": "CO",
      "lat": 39.6403,
      "lon": -106.3742,
      "snowfall_24hr_in": 4,
      "snowfall_7day_in": 22
    },
    {
      "name": "Breckenridge",
      "state": "CO",
      "lat": 39.4817,
      "lon": -106.0667,
      "snowfall_24hr_in": 6,
      "snowfall_7day_in": 31
    },
    {
      "name": "Telluride",
      "state": "CO",
      "lat": 37.9375,
      "lon": -107.8123,
      "snowfall_24hr_in": 8,
      "snowfall_7day_in": 37
    },
    {
      "name": "Steamboat Springs",
      "state": "CO",
      "lat": 40.4572,
      "lon": -106.8045,
      "snowfall_24hr_in": 11,
      "snowfall_7day_in": 45
    },
    {
      "name": "Crested Butte",
      "state": "CO",
      "lat": 38.8697,
      "lon": -106.9878,
      "snowfall_24hr_in": 10,
      "snowfall_7day_in": 48
    },
    {
      "name": "Monarch Mountain",
      "state": "CO",
      "lat": 38.5114,
      "lon": -106.3342,
      "snowfall_24hr_in": 14,
      "snowfall_7day_in": 56
    },
    {
      "name": "Wolf Creek",
      "state": "CO",
      "lat": 37.4742,
      "lon": -106.7928,
      "snowfall_24hr_in": 17,
      "snowfall_7day_in": 63
    },
    {
      "name": "Park City Mountain",
      "state": "UT",
      "lat": 40.6514,
      "lon": -111.508,
      "snowfall_24hr_in": 8,
      "snowfall_7day_in": 38
    },
    {
      "name": "Alta",
      "state": "UT",
      "lat": 40.5883,
      "lon": -111.6386,
      "snowfall_24hr_in": 16,
      "snowfall_7day_in": 67
    },
    {
      "name": "Snowbird",
      "state": "UT",
      "lat": 40.5831,
      "lon": -111.6556,
      "snowfall_24hr_in": 15,
      "snowfall_7day_in": 61
    },
    {
      "name": "Stowe",
      "state": "VT",
      "lat": 44.5286,
      "lon": -72.7814,
      "snowfall_24hr_in": 7,
      "snowfall_7day_in": 28
    },
    {
      "name": "Killington",
      "state": "VT",
      "lat": 43.6031,
      "lon": -72.8203,
      "snowfall_24hr_in": 5,
      "snowfall_7day_in": 24
    },
    {
      "name": "Jay Peak",
      "state": "VT",
      "lat": 44.9281,
      "lon": -72.5228,
      "snowfall_24hr_in": 12,
      "snowfall_7day_in": 52
    },
    {
      "name": "Mammoth Mountain",
      "state": "CA",
      "lat": 37.6308,
      "lon": -119.0326,
      "snowfall_24hr_in": 9,
      "snowfall_7day_in": 43
    },
    {
      "name": "Kirkwood",
      "state": "CA",
      "lat": 38.6844,
      "lon": -120.0656,
      "snowfall_24hr_in": 11,
      "snowfall_7day_in": 50
    },
    {
      "name": "Jackson Hole",
      "state": "WY",
      "lat": 43.5875,
      "lon": -110.8278,
      "snowfall_24hr_in": 13,
      "snowfall_7day_in": 55
    },
    {
      "name": "Grand Targhee",
      "state": "WY",
      "lat": 43.7878,
      "lon": -110.9414,
      "snowfall_24hr_in": 18,
      "snowfall_7day_in": 72
    },
    {
      "name": "Big Sky",
      "state": "MT",
      "lat": 45.2858,
      "lon": -111.4014,
      "snowfall_24hr_in": 10,
      "snowfall_7day_in": 46
    },
    {
      "name": "Whitefish Mountain",
      "state": "MT",
      "lat": 48.4797,
      "lon": -114.3556,
      "snowfall_24hr_in": 8,
      "snowfall_7day_in": 39
    },
    {
      "name": "Sun Valley",
      "state": "ID",
      "lat": 43.6958,
      "lon": -114.3517,
      "snowfall_24hr_in": 6,
      "snowfall_7day_in": 28
    }
  ]
}